City_ID,City,Cloudiness,Country,Date,Humidity,Lat,Lng,Max Temp,Wind Speed
0,mataura,16,NZ,1580454274,72,-46.19,168.86,57.99,18.99
1,longyearbyen,75,SJ,1580454098,85,78.22,15.64,24.8,14.99
2,hilo,40,US,1580454275,73,19.73,-155.09,73.4,3.36
3,luderitz,0,NA,1580454275,94,-26.65,15.16,62.78,12.73
4,hermanus,62,ZA,1580454275,87,-34.42,19.23,69.01,1.01
5,albany,1,US,1580454016,72,42.6,-73.97,23.0,0.92
6,kapaa,1,US,1580454093,78,22.08,-159.32,73.4,4.7
7,butaritari,0,KI,1580454276,77,3.07,172.79,85.08,15.3
8,puerto del rosario,0,ES,1580454276,41,28.5,-13.86,59.0,5.82
9,busselton,55,AU,1580454276,43,-33.65,115.33,68.0,5.01
10,atuona,3,PF,1580454276,75,-9.8,-139.03,81.43,16.46
11,atar,0,MR,1580454126,18,20.52,-13.05,59.72,10.96
12,hobart,37,AU,1580454003,15,-42.88,147.33,98.01,21.92
13,deputatskiy,100,RU,1580454246,99,69.3,139.9,-9.45,1.54
14,ushuaia,40,AR,1580454277,81,-54.8,-68.3,48.2,26.4
15,souillac,75,MU,1580454277,70,-20.52,57.52,84.2,11.41
16,ust-maya,99,RU,1580454278,97,60.42,134.53,-1.32,1.21
17,pevek,100,RU,1580454278,98,69.7,170.31,-19.59,6.71
18,piacabucu,59,BR,1580454278,84,-10.41,-36.43,77.14,5.79
19,nikolskoye,90,RU,1580454278,92,59.7,30.79,28.0,8.95
20,arraial do cabo,60,BR,1580454005,91,-22.97,-42.03,77.29,18.66
21,nyurba,64,RU,1580454279,94,63.28,118.33,-1.64,5.12
22,bengkulu,52,ID,1580454279,53,-3.8,102.27,89.2,7.2
23,santa cruz,75,BO,1580454096,94,-17.8,-63.17,69.8,6.93
24,kajaani,90,FI,1580454279,85,64.17,27.67,15.8,8.05
25,krasnouralsk,100,RU,1580454280,94,58.36,60.04,4.53,5.17
26,east london,11,ZA,1580454280,78,-33.02,27.91,77.0,11.41
27,barrow,1,US,1580454244,74,71.29,-156.79,-22.0,6.93
28,port macquarie,40,AU,1580454280,66,-31.43,152.92,87.8,17.22
29,healdsburg,1,US,1580454280,100,38.61,-122.87,54.0,4.63
30,rikitea,89,PF,1580454281,80,-23.12,-134.97,79.74,15.05
31,tezu,82,IN,1580454071,45,27.92,96.17,66.9,4.81
32,tilichiki,0,RU,1580454281,89,60.47,166.1,-13.67,8.79
33,bluff,53,NZ,1580454281,72,-46.6,168.33,57.99,18.99
34,basco,8,PH,1580454281,70,20.45,121.97,65.88,22.88
35,saskylakh,100,RU,1580454282,98,71.92,114.08,-17.36,8.43
36,san cristobal,40,VE,1580454131,73,7.77,-72.22,77.0,2.24
37,vaini,40,TO,1580454282,88,-21.2,-175.2,82.4,4.7
38,brookhaven,90,US,1580454266,93,31.58,-90.44,51.8,2.53
39,tiksi,100,RU,1580454282,98,71.69,128.87,-8.79,2.13
40,geraldton,21,AU,1580454283,33,-28.77,114.6,77.0,23.04
41,provideniya,66,RU,1580454283,81,64.38,-173.3,-9.36,1.3
42,westport,75,US,1580454075,79,41.14,-73.36,35.01,2.44
43,yellowknife,90,CA,1580454027,76,62.46,-114.35,-4.0,10.29
44,chokurdakh,85,RU,1580454284,96,70.63,147.92,-20.06,3.98
45,yanam,40,IN,1580454284,70,16.73,82.22,84.2,5.82
46,yuzhno-kurilsk,100,RU,1580454284,96,44.03,145.86,32.47,27.0
47,port hedland,1,AU,1580454284,35,-20.32,118.57,98.6,19.46
48,dakoro,0,NE,1580454285,19,14.51,6.76,61.34,9.89
49,punta arenas,75,CL,1580454285,76,-53.15,-70.92,50.0,24.16
50,taman,40,RU,1580454285,93,45.21,36.72,35.6,2.24
51,padang,100,ID,1580454286,55,-0.95,100.35,84.85,3.11
52,avarua,0,CK,1580454286,74,-21.21,-159.78,78.8,22.64
53,skibbereen,75,IE,1580454286,93,51.55,-9.27,50.0,20.8
54,fort saint james,67,CA,1580454286,83,54.43,-124.25,29.23,10.29
55,esperance,75,AU,1580454287,43,-33.87,121.9,69.8,17.22
56,kodiak,90,US,1580454287,66,57.79,-152.41,15.8,14.99
57,rocha,3,UY,1580454287,92,-34.48,-54.33,56.07,0.4
58,guerrero negro,0,MX,1580454287,35,27.98,-114.06,62.38,12.33
59,bay roberts,90,CA,1580454287,92,47.6,-53.26,21.99,12.75
60,adeje,0,ES,1580454067,22,28.12,-16.73,68.0,12.75
61,sioux lookout,90,CA,1580454288,85,50.1,-91.92,21.2,3.36
62,bethel,75,US,1580454288,79,41.37,-73.41,30.99,2.51
63,havre-saint-pierre,20,CA,1580454288,56,50.23,-63.6,12.2,14.99
64,victoria,0,HK,1580454021,31,22.29,114.16,66.0,9.17
65,la rioja,90,ES,1580454159,100,42.25,-2.5,46.0,2.24
66,dunedin,2,NZ,1580454089,59,-45.87,170.5,59.95,23.58
67,sao joao da barra,6,BR,1580454045,89,-21.64,-41.05,76.57,14.81
68,asfi,5,MA,1580454129,66,32.3,-9.24,49.23,2.46
69,kyrnasivka,88,UA,1580454290,76,48.6,28.98,32.0,5.01
70,la ronge,5,CA,1580454290,92,55.1,-105.28,19.4,8.05
71,khorixas,35,NA,1580454290,34,-20.37,14.97,75.13,1.83
72,valparaiso,0,CL,1580454291,93,-33.04,-71.63,55.4,3.36
73,saint-philippe,32,RE,1580454291,66,-21.36,55.77,86.0,19.46
74,port hardy,90,CA,1580454291,100,50.7,-127.42,41.0,5.82
75,mehamn,75,NO,1580454183,72,71.04,27.85,23.0,17.22
76,bathsheba,75,BB,1580454292,78,13.22,-59.52,77.0,19.46
77,torbay,90,CA,1580454292,92,47.67,-52.73,21.99,12.75
78,nedjo,90,ET,1580454292,28,9.5,35.5,69.73,1.9
79,dangriga,17,BZ,1580454292,95,16.97,-88.23,73.0,1.01
80,shache,0,CN,1580454292,74,38.42,77.24,35.01,2.73
81,fortuna,90,US,1580454293,100,40.6,-124.16,52.0,9.17
82,valley city,90,US,1580454003,100,46.92,-98.0,24.8,1.1
83,castro,73,BR,1580454293,98,-24.79,-50.01,66.18,4.7
84,haines junction,81,CA,1580454293,91,60.75,-137.51,6.82,10.74
85,upernavik,100,GL,1580454294,94,72.79,-56.15,-8.19,5.37
86,sechura,49,PE,1580454294,86,-5.56,-80.82,73.63,8.46
87,kirensk,100,RU,1580454294,87,57.79,108.11,-2.81,8.32
88,saint-donat-de-montcalm,61,CA,1580454294,8,46.32,-74.22,9.0,1.01
89,saldanha,55,ZA,1580454294,87,-33.01,17.94,60.8,8.05
90,tornabe,75,HN,1580454295,83,15.75,-87.55,77.0,2.33
91,hithadhoo,77,MV,1580454295,78,-0.6,73.08,81.5,14.5
92,bambous virieux,75,MU,1580454295,70,-20.34,57.76,84.2,11.41
93,bredasdorp,75,ZA,1580454295,82,-34.53,20.04,69.01,2.24
94,ostrovnoy,6,RU,1580454296,97,68.05,39.51,-2.29,12.97
95,san jose de buan,60,PH,1580454296,61,12.05,125.03,81.21,5.41
96,cape town,75,ZA,1580454296,88,-33.93,18.42,73.0,16.11
97,tasiilaq,100,GL,1580454296,46,65.61,-37.64,28.4,32.21
98,ribeira grande,83,PT,1580454296,91,38.52,-28.7,60.48,18.32
99,mount gambier,90,AU,1580454296,94,-37.83,140.77,77.0,10.29
100,vyshhorod,90,UA,1580454154,87,50.58,30.49,35.01,6.71
101,axim,9,GH,1580454297,97,4.87,-2.24,75.56,1.5
102,elliot,0,ZA,1580454297,32,-31.33,27.85,79.63,5.95
103,norman wells,75,CA,1580454297,68,65.28,-126.83,-18.4,3.69
104,nivala,100,FI,1580454297,90,63.92,25.0,21.99,7.0
105,port lincoln,89,AU,1580454298,50,-34.73,135.87,88.02,12.41
106,champerico,13,GT,1580454298,84,14.3,-91.92,73.76,3.8
107,touros,40,BR,1580454298,88,-5.2,-35.46,75.2,3.36
108,new norfolk,25,AU,1580454299,15,-42.78,147.06,97.0,21.92
109,rolla,90,US,1580454184,100,37.95,-91.77,36.0,2.98
110,lovozero,6,RU,1580454299,94,68.0,35.01,-7.13,12.59
111,niamey,66,NE,1580454299,14,13.51,2.11,69.8,8.05
112,nome,1,US,1580454299,57,64.5,-165.41,-11.0,6.93
113,puerto ayora,39,EC,1580454300,7,-0.74,-90.35,77.0,4.0
114,severo-kurilsk,48,RU,1580454300,89,50.68,156.12,13.41,8.37
115,khani,90,GE,1580454300,81,41.96,42.96,46.4,17.22
116,port alfred,0,ZA,1580454300,82,-33.59,26.89,75.99,3.0
117,sonoita,0,MX,1580454300,38,31.85,-112.83,51.01,4.41
118,ambilobe,91,MG,1580454301,73,-13.2,49.05,81.52,5.61
119,kahului,40,US,1580454217,73,20.89,-156.47,71.6,5.82
120,iqaluit,40,CA,1580454301,76,63.75,-68.51,-9.0,20.8
121,payakumbuh,100,ID,1580454301,70,-0.22,100.63,79.48,4.52
122,slavjanovo,40,BG,1580454197,79,43.47,24.87,43.0,6.93
123,sinegorskiy,100,RU,1580454302,80,48.01,40.84,33.94,5.77
124,sorland,40,NO,1580454302,59,67.67,12.69,37.4,20.8
125,lebu,0,CL,1580454302,87,-37.62,-73.65,57.67,7.99
126,shingu,75,JP,1580454302,42,33.73,135.98,46.4,27.51
127,careiro da varzea,75,BR,1580454303,88,-3.2,-59.81,78.8,1.12
128,killybegs,100,IE,1580454303,96,54.63,-8.45,51.01,10.0
129,semirara,49,PH,1580454303,78,12.07,121.4,77.99,24.25
130,lagoa,68,PT,1580454303,88,39.05,-27.98,62.33,14.47
131,cabo san lucas,75,MX,1580454304,67,22.89,-109.91,59.0,4.7
132,narsaq,44,GL,1580454304,45,60.92,-46.05,1.4,9.17
133,chicama,90,PE,1580454304,94,-7.84,-79.15,69.8,8.05
134,wuwei,21,CN,1580454077,26,37.93,102.64,31.14,5.59
135,bac lieu,59,VN,1580454189,45,9.29,105.72,88.21,16.44
136,mahebourg,75,MU,1580454305,70,-20.41,57.7,84.2,11.41
137,bardiyah,0,LY,1580454305,72,31.76,25.09,58.64,11.05
138,kruisfontein,0,ZA,1580454305,52,-34.0,24.73,76.75,4.29
139,tuatapere,32,NZ,1580454305,72,-46.13,167.68,57.99,18.99
140,moskovskiy,40,RU,1580454306,96,55.6,37.35,32.0,2.24
141,harper,76,LR,1580454306,94,4.38,-7.72,75.6,2.04
142,cortes,78,ES,1580454306,93,41.94,-1.44,46.4,2.24
143,puri,75,IN,1580454306,61,19.8,85.85,77.0,4.7
144,husavik,90,IS,1580454306,86,66.04,-17.34,33.8,18.34
145,san andres,20,CO,1580454054,74,12.58,-81.7,80.6,5.82
146,kimbe,84,PG,1580454307,82,-5.55,150.14,82.81,4.52
147,atambua,45,ID,1580454307,64,-9.11,124.89,84.25,6.76
148,mareeba,90,AU,1580454307,78,-17.0,145.43,84.99,13.87
149,san patricio,95,MX,1580454308,75,19.22,-104.7,75.11,4.32
150,khatanga,95,RU,1580454308,97,71.97,102.5,-23.48,5.7
151,tuktoyaktuk,75,CA,1580454308,75,69.45,-133.04,-18.4,2.24
152,visnes,75,NO,1580454308,81,59.36,5.22,45.0,19.46
153,chapais,90,CA,1580454309,76,49.78,-74.85,-7.6,3.44
154,hammerfest,100,NO,1580454243,73,70.66,23.68,26.6,43.62
155,adrar,17,MR,1580454310,12,20.5,-10.07,57.47,10.74
156,marawi,45,PH,1580454310,73,8.0,124.29,82.99,10.0
157,laguna,1,US,1580454310,93,38.42,-121.42,54.0,3.04
158,ahipara,4,NZ,1580454310,80,-35.17,173.17,75.99,13.11
159,kaitangata,65,NZ,1580454310,48,-46.28,169.85,62.01,8.01
160,viedma,23,AR,1580454311,36,-40.81,-63.0,66.43,5.32
161,pudozh,97,RU,1580454311,93,61.81,36.53,2.62,10.07
162,ambon,40,ID,1580454311,55,-3.7,128.18,91.4,13.87
163,yerbogachen,100,RU,1580454311,93,61.28,108.01,-7.73,11.12
164,pisco,100,PE,1580454312,88,-13.7,-76.22,72.0,5.82
165,buchanan,40,LR,1580454312,100,5.88,-10.05,75.2,1.14
166,hirara,20,JP,1580454312,42,24.8,125.28,62.6,12.75
167,chuy,78,UY,1580454312,92,-33.7,-53.46,65.44,6.78
168,carnarvon,0,AU,1580454313,44,-24.87,113.63,78.8,21.92
169,humberto de campos,100,BR,1580454313,87,-2.6,-43.46,77.56,5.41
170,namibe,100,AO,1580454313,92,-15.2,12.15,76.06,10.33
171,krasnoselkup,84,RU,1580454313,96,65.7,82.47,-24.3,5.88
172,ilulissat,6,GL,1580454314,70,69.22,-51.1,-2.2,4.7
173,qaanaaq,84,GL,1580454314,95,77.48,-69.36,-23.15,3.94
174,georgetown,20,MY,1580454107,62,5.41,100.34,87.8,5.82
175,taltal,0,CL,1580454314,89,-25.4,-70.48,60.06,4.27
176,kenora,90,CA,1580454314,92,49.82,-94.43,23.0,3.36
177,conceicao do araguaia,71,BR,1580454315,96,-8.26,-49.26,72.41,1.5
178,comodoro rivadavia,19,AR,1580454315,72,-45.87,-67.5,59.0,5.82
179,les cayes,0,HT,1580454315,73,18.2,-73.75,78.48,8.79
180,goundam,0,ML,1580454315,19,16.41,-3.67,64.65,11.59
181,waipawa,39,NZ,1580454153,77,-41.41,175.52,68.0,25.28
182,hasaki,20,JP,1580454105,29,35.73,140.83,50.0,27.51
183,olafsvik,0,IS,1580454316,74,64.89,-23.71,30.33,19.48
184,katsuura,20,JP,1580454316,39,35.13,140.3,52.0,28.86
185,mutoko,97,ZW,1580454316,80,-17.4,32.23,68.11,0.25
186,quatre cocos,75,MU,1580454316,70,-20.21,57.76,84.2,11.41
187,smithers,20,CA,1580454317,86,54.78,-127.17,30.2,4.7
188,maniitsoq,35,GL,1580454322,69,65.42,-52.9,7.95,4.03
189,faanui,100,PF,1580454322,83,-16.48,-151.75,78.89,6.24
190,zimovniki,100,RU,1580454322,79,47.15,42.46,36.0,3.24
191,cayenne,75,GF,1580454322,94,4.93,-52.33,77.0,8.05
192,tayu,66,ID,1580454323,77,-6.54,111.05,82.35,11.5
193,bajmok,74,RS,1580454323,62,45.97,19.42,37.15,11.14
194,sault sainte marie,90,CA,1580454165,86,46.52,-84.33,28.4,4.7
195,bozoum,99,CF,1580454304,16,6.32,16.38,65.79,4.94
196,aras,82,ES,1580454324,100,42.56,-2.36,48.99,2.24
197,surab,0,PK,1580454197,43,28.49,66.26,38.89,15.08
198,pangnirtung,96,CA,1580454324,99,66.15,-65.71,-12.06,1.74
199,lompoc,1,US,1580454254,71,34.64,-120.46,57.2,11.45
200,praia da vitoria,75,PT,1580454325,88,38.73,-27.07,62.6,26.8
201,henties bay,85,NA,1580454325,91,-22.12,14.28,63.0,1.99
202,tura,0,IN,1580454180,37,25.52,90.22,76.26,4.83
203,codrington,99,AU,1580454326,81,-38.27,141.97,69.76,23.02
204,te anau,6,NZ,1580454326,57,-45.42,167.72,57.33,9.91
205,asau,100,RO,1580454326,64,46.43,26.4,39.2,5.82
206,meru,16,KE,1580454326,61,0.05,37.66,58.37,4.47
207,virginia beach,1,US,1580454174,81,36.85,-75.98,41.0,12.37
208,qiongshan,20,CN,1580454327,40,20.01,110.35,73.4,13.42
209,sept-iles,20,CA,1580454078,70,50.2,-66.38,-5.8,4.7
210,tulun,99,RU,1580454327,88,54.56,100.58,-1.21,3.85
211,oussouye,2,SN,1580454327,94,12.48,-16.55,68.0,4.7
212,sitka,90,US,1580454327,74,57.05,-135.33,37.4,13.87
213,umm kaddadah,9,SD,1580454328,21,13.6,26.69,58.41,13.13
214,hobyo,100,SO,1580454328,60,5.35,48.53,78.58,19.26
215,mariara,0,VE,1580454328,91,10.3,-67.72,71.47,2.8
216,anadyr,20,RU,1580454328,82,64.75,177.48,-18.0,4.47
217,havelock,1,US,1580454179,75,34.88,-76.9,41.0,8.05
218,tahta,0,EG,1580454329,61,26.77,31.5,50.0,9.17
219,luena,100,AO,1580454329,96,-11.78,19.92,64.24,5.41
220,ancud,90,CL,1580454330,100,-41.87,-73.82,57.2,2.24
221,tonantins,66,BR,1580454330,92,-2.87,-67.8,74.97,1.16
222,alice springs,75,AU,1580454330,46,-23.7,133.88,91.4,17.22
223,ransang,96,PH,1580454330,77,8.96,117.58,80.04,18.81
224,jamestown,90,US,1580454040,79,42.1,-79.24,30.2,3.89
225,san quintin,54,MX,1580454193,63,30.48,-115.95,59.04,4.81
226,zhigansk,100,RU,1580454334,96,66.77,123.37,-8.27,9.04
227,jumla,0,NP,1580454334,50,29.27,82.18,38.12,2.91
228,solnechnyy,0,RU,1580454334,87,50.72,136.63,13.75,2.51
229,puerto leguizamo,79,CO,1580454335,84,-0.19,-74.78,75.56,2.28
230,saint george,1,US,1580454206,85,37.1,-113.58,44.6,1.95
231,sabha,0,LY,1580454336,37,27.04,14.43,54.66,7.25
232,loiza,1,PR,1580454336,94,18.43,-65.88,73.4,5.97
233,abu dhabi,0,AE,1580454051,68,24.47,54.37,64.4,3.36
234,aransas pass,75,US,1580454336,82,27.91,-97.15,55.4,8.05
235,jinxiang,0,CN,1580454336,29,22.86,115.7,64.98,2.57
236,saint-augustin,85,CA,1580454337,82,51.23,-58.65,6.89,13.6
237,thompson,90,CA,1580454337,92,55.74,-97.86,21.2,8.05
238,scottsbluff,1,US,1580454337,68,41.87,-103.67,30.99,18.34
239,kuchaman,0,IN,1580454337,36,27.15,74.85,64.26,8.66
240,tazovskiy,97,RU,1580454338,95,67.47,78.7,-12.39,11.56
241,vila do maio,0,CV,1580454338,40,15.13,-23.22,73.4,12.75
242,kachiry,0,KZ,1580454338,91,53.07,76.1,-3.5,6.64
243,richards bay,44,ZA,1580454338,71,-28.78,32.04,78.03,18.97
244,murgab,20,TM,1580454338,70,37.5,61.97,44.6,6.93
245,emerald,96,AU,1580454339,36,-23.53,148.17,95.0,14.99
246,korla,48,CN,1580454339,84,41.76,86.15,30.0,4.03
247,mackay,98,AU,1580454180,66,-21.15,149.2,86.0,16.11
248,acajutla,0,SV,1580454340,77,13.59,-89.83,80.37,11.16
249,mahibadhoo,66,MV,1580454340,73,3.78,72.97,81.25,15.48
250,guipavas,90,FR,1580454340,100,48.44,-4.4,50.0,14.99
251,starodub,97,RU,1580454053,97,52.58,32.76,32.13,10.07
252,damghan,0,IR,1580454341,40,36.17,54.35,42.35,0.83
253,hofn,0,IS,1580454341,61,64.25,-15.21,37.33,14.38
254,general pico,0,AR,1580454341,29,-35.66,-63.76,67.03,13.42
255,khatima,0,IN,1580454342,60,28.92,79.97,61.43,4.54
256,xuanhua,0,CN,1580454306,31,40.61,115.04,32.43,14.16
257,subate,95,LV,1580454342,96,56.01,25.91,33.3,6.73
258,makakilo city,1,US,1580454050,69,21.35,-158.09,77.0,4.7
259,roros,75,NO,1580454342,92,62.57,11.38,24.8,17.22
260,verkhoyansk,97,RU,1580454343,98,67.54,133.38,-12.33,3.29
261,manaure,49,CO,1580454343,84,11.78,-72.44,78.24,18.81
262,paamiut,0,GL,1580454343,47,61.99,-49.67,8.44,6.22
263,sibolga,100,ID,1580454343,73,1.74,98.78,83.82,2.26
264,clyde river,1,CA,1580454343,75,70.47,-68.59,-18.4,4.7
265,vestmanna,100,FO,1580454344,100,62.16,-7.17,35.6,4.7
266,lasem,66,ID,1580454349,78,-6.69,111.45,83.26,16.96
267,whitehorse,75,CA,1580454349,85,60.72,-135.05,17.6,9.17
268,bereda,75,ES,1580454349,82,43.27,-7.54,61.0,14.99
269,airai,68,TL,1580454350,78,-8.93,125.41,77.65,1.45
270,mendi,24,PG,1580454350,90,-6.18,143.65,63.5,4.43
271,barguzin,95,RU,1580454350,84,53.62,109.62,2.88,13.22
272,upata,16,VE,1580454350,88,8.01,-62.4,71.1,4.92
273,yukamenskoye,100,RU,1580454351,95,57.89,52.24,27.95,10.36
274,aklavik,20,CA,1580454351,73,68.22,-135.01,-29.2,2.24
275,juneau,75,US,1580454351,99,58.3,-134.42,33.8,3.36
276,mariinsk,97,RU,1580454351,91,56.21,87.75,-5.57,7.27
277,lavrentiya,16,RU,1580454351,81,65.58,-171.0,-14.17,1.95
278,katidtuan,65,PH,1580454352,37,7.19,124.32,96.13,2.91
279,vila franca do campo,98,PT,1580454352,85,37.72,-25.43,63.0,4.0
280,vernon,90,CA,1580454352,95,50.26,-119.27,37.4,3.36
281,lata,90,PT,1580454352,100,40.16,-8.33,57.2,3.36
282,acatlan,71,MX,1580454353,39,20.15,-98.45,50.59,7.92
283,pacific grove,90,US,1580454353,93,36.62,-121.92,54.0,13.65
284,palora,69,EC,1580454353,90,-1.7,-77.93,65.62,3.51
285,los pozos,4,VE,1580454353,94,8.45,-62.73,72.37,4.61
286,tyukalinsk,90,RU,1580454353,86,55.87,72.2,0.03,10.56
287,amahai,38,ID,1580454354,67,-3.33,128.92,86.38,9.51
288,chalmette,90,US,1580454354,87,29.94,-89.96,57.0,9.17
289,plettenberg bay,0,ZA,1580454354,65,-34.05,23.37,73.06,5.68
290,tommot,100,RU,1580454355,92,58.96,126.29,8.31,2.33
291,beloha,92,MG,1580454355,61,-25.17,45.05,78.98,13.87
292,shenjiamen,0,CN,1580454355,54,29.96,122.3,43.18,20.94
293,vitim,100,RU,1580454355,88,59.45,112.56,-1.55,9.01
294,yumen,25,CN,1580454356,28,40.28,97.2,31.05,10.25
295,inuvik,20,CA,1580454356,73,68.35,-133.72,-29.2,2.24
296,ondjiva,82,AO,1580454356,75,-17.07,15.73,72.32,2.15
297,bilibino,100,RU,1580454356,98,68.05,166.44,-24.74,2.19
298,santa maria,37,BR,1580454304,99,-29.68,-53.81,65.55,2.15
299,linhai,0,CN,1580454357,29,28.85,121.12,59.0,1.01
300,lillooet,90,CA,1580454357,75,50.69,-121.94,42.8,17.22
301,komsomolskiy,12,UZ,1580454357,48,40.43,71.72,41.0,2.24
302,moundou,100,TD,1580454358,52,8.57,16.08,66.2,6.93
303,faya,40,SA,1580454358,82,18.39,42.45,57.2,16.11
304,labuhan,100,ID,1580454358,86,-6.88,112.21,80.91,7.47
305,portmore,20,JM,1580454358,73,17.97,-76.87,77.0,6.93
306,port-gentil,40,GA,1580454358,94,-0.72,8.78,77.0,4.7
307,aurillac,100,FR,1580454359,100,44.92,2.45,52.0,2.24
308,calama,3,CL,1580454359,49,-22.47,-68.93,48.2,12.75
309,mar del plata,1,AR,1580454118,71,-38.0,-57.56,60.01,13.87
310,talcahuano,0,CL,1580454359,82,-36.72,-73.12,57.2,6.93
311,ponta do sol,40,PT,1580454360,82,32.67,-17.1,64.99,8.05
312,ilhabela,100,BR,1580454181,82,-23.78,-45.36,80.02,12.5
313,sayyan,13,YE,1580454360,31,15.17,44.32,56.53,2.42
314,tessalit,0,ML,1580454360,20,20.2,1.01,61.59,7.96
315,novoagansk,31,RU,1580454360,96,61.94,76.66,-19.75,1.7
316,cururupu,100,BR,1580454361,98,-1.83,-44.87,74.26,1.57
317,sawakin,93,SD,1580454361,74,19.11,37.33,73.29,12.01
318,hualmay,100,PE,1580454361,81,-11.1,-77.61,70.93,3.76
319,puerto escondido,17,MX,1580454361,84,15.85,-97.07,66.79,3.71
320,qaqortoq,0,GL,1580454361,45,60.72,-46.03,1.4,9.17
321,kutum,1,SD,1580454362,26,14.2,24.67,53.26,3.4
322,carolina,1,PR,1580454362,94,18.38,-65.96,73.4,5.97
323,fairmont,90,US,1580454072,98,39.49,-80.14,35.6,3.36
324,north ridgeville,90,US,1580454362,68,41.39,-82.02,30.99,5.82
325,lasa,40,IT,1580454363,100,46.62,10.7,35.6,8.05
326,zmeyskaya,90,RU,1580454363,93,43.34,44.16,35.6,2.04
327,cidreira,75,BR,1580454363,85,-30.18,-50.21,75.67,3.31
328,hurghada,0,EG,1580454363,50,27.26,33.81,57.2,11.41
329,kato milea,79,GR,1580454363,74,40.25,22.34,45.0,3.36
330,petropavlovsk-kamchatskiy,0,RU,1580454364,55,53.05,158.65,8.6,2.24
331,dikson,100,RU,1580454364,95,73.51,80.55,4.46,9.48
332,jacqueville,88,CI,1580454364,83,5.21,-4.41,82.4,5.82
333,hambantota,20,LK,1580454364,66,6.12,81.12,86.0,14.99
334,sao jose da coroa grande,5,BR,1580454364,75,-8.9,-35.15,81.1,8.95
335,sur,0,OM,1580454365,49,22.57,59.53,70.32,12.97
336,turbat,0,PK,1580454365,32,26.0,63.04,66.52,4.59
337,bonavista,87,CA,1580454365,90,48.65,-53.11,21.0,15.99
338,port moresby,40,PG,1580454366,66,-9.44,147.18,87.8,11.41
339,maubin,0,MM,1580454366,49,16.73,95.65,89.6,3.36
340,palu,100,ID,1580454366,90,-0.89,119.87,71.08,3.87
341,mount isa,40,AU,1580454366,52,-20.73,139.5,91.4,11.41
342,cachoeiro de itapemirim,20,BR,1580454366,89,-20.85,-41.11,73.87,3.29
343,isangel,20,VU,1580454367,70,-19.55,169.27,86.0,9.84
344,yulara,40,AU,1580454367,34,-25.24,130.99,96.8,23.04
345,seoul,75,KR,1580454343,49,37.57,126.98,46.4,4.7
346,palana,100,RU,1580454367,97,59.12,159.97,-1.41,1.97
347,ranot,84,TH,1580454368,76,7.78,100.32,81.1,18.16
348,bakhtiyarpur,20,IN,1580454368,56,25.47,85.52,68.0,9.17
349,itaituba,80,BR,1580454368,98,-4.28,-55.98,73.38,0.94
350,vila velha,13,BR,1580454123,88,-20.33,-40.29,77.0,8.05
351,tchibanga,87,GA,1580454369,95,-2.85,11.03,73.47,1.83
352,port elizabeth,0,ZA,1580454369,73,-33.92,25.57,73.4,13.87
353,sinazongwe,100,ZM,1580454374,86,-17.26,27.46,73.89,7.72
354,vestmannaeyjar,0,IS,1580454374,70,63.44,-20.27,32.0,17.22
355,beinamar,100,TD,1580454374,14,8.67,15.38,62.92,2.06
356,grand gaube,75,MU,1580454375,70,-20.01,57.66,84.2,11.41
357,magistralnyy,100,RU,1580454295,80,56.17,107.45,-3.3,5.3
358,milyutinskaya,100,RU,1580454375,83,48.63,41.67,32.77,5.77
359,almaznyy,90,RU,1580454375,83,48.04,40.05,32.0,6.71
360,alugan,77,PH,1580454376,68,12.22,125.48,80.98,13.49
361,kampot,40,KH,1580454376,66,10.62,104.18,84.2,12.75
362,tocopilla,8,CL,1580454376,55,-22.09,-70.2,57.94,4.43
363,portland,90,US,1580454313,87,45.52,-122.68,54.0,8.05
364,gamba,83,GA,1580454377,88,-2.65,10.0,76.64,2.26
365,shelburne,90,CA,1580454377,92,44.08,-80.2,27.0,2.51
366,yashkino,20,RU,1580454377,76,55.87,85.43,-9.4,4.47
367,karuzi,76,BI,1580454377,91,-3.12,30.13,64.31,2.04
368,sokolo,0,ML,1580454378,18,14.73,-6.12,67.59,12.71
369,muriti,75,TZ,1580454378,88,-1.98,32.92,71.6,8.05
370,nuuk,1,GL,1580454378,78,64.18,-51.72,8.6,10.29
371,ndungu,98,TZ,1580454378,75,-4.37,38.05,75.33,2.71
372,kisaran,96,ID,1580454379,57,2.98,99.62,90.21,1.52
373,burnie,85,AU,1580454379,41,-41.07,145.92,82.99,3.0
374,burgersdorp,0,ZA,1580454379,37,-31.0,26.33,72.32,16.4
375,dargaville,20,NZ,1580454379,71,-35.93,173.88,72.5,8.46
376,cherskiy,100,RU,1580454379,97,68.75,161.3,-21.62,8.37
377,mapimi,42,MX,1580454380,58,25.82,-103.85,50.0,5.35
378,rudbar,0,AF,1580454380,33,30.15,62.6,53.85,1.45
379,alofi,100,NU,1580454380,83,-19.06,-169.92,82.4,13.18
380,itoman,40,JP,1580454380,51,26.12,127.67,62.6,18.34
381,muros,90,ES,1580454381,100,42.78,-9.06,60.01,10.29
382,dhidhdhoo,39,MV,1580454381,72,6.88,73.1,82.0,15.1
383,ozu,20,JP,1580454381,49,33.5,132.55,48.2,5.82
384,nanortalik,17,GL,1580454381,65,60.14,-45.24,13.24,16.24
385,miranda,40,CO,1580454382,94,3.25,-76.23,68.0,2.24
386,san jose,1,US,1580454116,93,37.34,-121.89,54.0,0.96
387,raga,73,SS,1580454382,20,8.46,25.68,63.79,4.07
388,lindi,75,TZ,1580454382,94,-10.0,39.72,77.0,9.17
389,talara,98,PE,1580454382,91,-4.58,-81.27,73.78,13.0
390,proletariy,97,RU,1580454383,91,58.43,31.7,27.21,3.22
391,petrykivka,67,UA,1580454383,86,48.73,34.64,33.8,8.95
392,moerai,98,PF,1580454383,82,-22.43,-151.33,79.72,25.26
393,margate,100,GB,1580454383,93,51.38,1.39,48.99,12.75
394,mega,61,ET,1580454384,48,4.05,38.3,74.37,7.87
395,severo-yeniseyskiy,98,RU,1580454384,91,60.37,93.04,-11.24,6.22
396,nishihara,40,JP,1580454384,51,26.18,127.76,62.6,18.34
397,aranos,0,NA,1580454384,28,-24.13,19.12,80.46,11.92
398,maraa,92,BR,1580454384,96,-1.83,-65.37,74.64,2.26
399,lodwar,100,KE,1580454385,54,3.12,35.6,82.08,2.75
400,presidencia roque saenz pena,0,AR,1580454385,83,-26.79,-60.44,66.45,4.32
401,hovd,3,MN,1580454385,58,48.01,91.64,2.35,4.14
402,peniche,90,PT,1580454386,100,39.36,-9.38,61.0,3.36
403,hastings,100,GB,1580454110,100,50.86,0.57,48.99,19.46
404,kattivakkam,20,IN,1580454386,66,13.22,80.32,86.0,5.82
405,odweyne,98,SO,1580454386,20,9.41,45.06,72.18,2.77
406,thies,0,SN,1580454387,39,14.83,-17.11,78.8,13.87
407,bronnoysund,40,NO,1580454387,59,65.46,12.2,37.4,26.4
408,klaksvik,100,FO,1580454387,100,62.23,-6.59,35.6,4.7
409,naze,75,JP,1580454388,62,28.37,129.48,59.0,10.29
410,surt,0,LY,1580454388,87,31.21,16.59,51.48,2.28
411,truth or consequences,1,US,1580454388,39,33.13,-107.25,44.6,12.75
412,port-cartier,20,CA,1580454388,70,50.03,-66.87,-5.8,4.7
413,lorengau,100,PG,1580454388,79,-2.02,147.27,84.09,11.68
414,mogadishu,75,SO,1580454267,61,2.04,45.34,82.4,14.99
415,santa cruz de tenerife,0,ES,1580454389,23,28.47,-16.25,68.0,6.93
416,catacamas,11,HN,1580454389,98,14.8,-85.9,61.57,1.57
417,kulunda,0,RU,1580454389,92,52.57,78.94,-2.65,5.41
418,katangli,0,RU,1580454390,89,51.71,143.23,4.8,3.18
419,tutoia,100,BR,1580454390,94,-2.76,-42.27,74.39,6.26
420,dumka,0,IN,1580454390,33,24.27,87.25,70.5,8.05
421,teya,100,RU,1580454390,89,60.38,92.63,-11.07,4.07
422,camocim,100,BR,1580454390,95,-2.9,-40.84,74.5,2.37
423,esso,2,RU,1580454391,99,55.93,158.7,-9.6,3.8
424,wanning,9,CN,1580454391,52,18.8,110.4,69.19,7.56
425,berlevag,40,NO,1580454183,78,70.86,29.09,17.6,31.09
426,melita,86,CA,1580454392,95,49.27,-101.0,24.01,4.61
427,shitanjing,0,CN,1580454305,23,39.23,106.34,36.54,2.73
428,tual,0,ID,1580454392,71,-5.67,132.75,85.15,10.07
429,biltine,2,TD,1580454392,20,14.53,20.92,59.99,12.19
430,kavieng,100,PG,1580454392,77,-2.57,150.8,84.52,11.59
431,kulhudhuffushi,10,MV,1580454393,72,6.62,73.07,82.44,15.03
432,anzio,40,IT,1580454393,76,41.49,12.62,54.0,4.7
433,hami,66,CN,1580454393,64,42.8,93.45,17.28,1.23
434,paraguacu paulista,88,BR,1580454393,97,-22.41,-50.58,70.25,5.35
435,calderitas,20,MX,1580454394,92,18.55,-88.25,75.56,6.31
436,bani,50,DO,1580454394,79,18.28,-70.33,73.99,3.0
437,los llanos de aridane,0,ES,1580454394,48,28.66,-17.92,66.0,2.24
438,abyek,75,IR,1580454394,64,36.07,50.55,37.4,4.7
439,henderson,1,US,1580454242,37,36.04,-114.98,53.6,3.36
440,talnakh,40,RU,1580454395,74,69.49,88.4,-25.6,15.66
441,kamina,100,CD,1580454395,92,-8.74,24.99,66.72,1.57
442,baker city,75,US,1580454176,91,44.77,-117.83,41.0,10.29
443,laguna de perlas,0,NI,1580454395,70,12.34,-83.67,79.86,8.79
444,imeni zhelyabova,99,RU,1580454395,94,58.95,36.6,18.66,5.79
445,nanakuli,1,US,1580454396,78,21.39,-158.15,77.0,3.36
446,urumqi,93,CN,1580454396,78,43.8,87.6,15.8,4.47
447,ak-dovurak,96,RU,1580454396,78,51.18,90.6,-4.38,2.66
448,sambava,86,MG,1580454396,61,-14.27,50.17,82.9,3.85
449,moron,0,AR,1580454243,87,-34.65,-58.62,62.6,2.24
450,adre,59,TD,1580454397,26,13.47,22.2,55.78,14.05
451,along,99,IN,1580454397,96,28.17,94.77,48.33,3.27
452,takoradi,9,GH,1580454397,97,4.88,-1.76,75.56,1.5
453,karratha,31,AU,1580454397,64,-20.74,116.85,82.94,24.96
454,cheremukhovo,100,RU,1580454398,97,60.35,59.99,-6.74,5.77
455,riohacha,30,CO,1580454398,90,11.54,-72.91,73.54,6.46
456,pecos,1,US,1580454398,72,31.42,-103.49,35.6,4.7
457,puerto madero,40,MX,1580454398,100,14.72,-92.42,69.8,4.83
458,mpophomeni,45,ZA,1580454398,86,-29.57,30.19,75.99,1.01
459,kumluca,0,TR,1580454399,47,36.37,30.29,40.8,8.14
460,malhargarh,0,IN,1580454399,32,24.28,74.98,66.94,6.64
461,rio gallegos,89,AR,1580454399,61,-51.62,-69.22,50.0,13.87
462,boende,96,CD,1580454400,90,-0.22,20.87,73.76,4.0
463,harer,100,ET,1580454400,59,9.31,42.13,64.89,4.14
464,locri,0,IT,1580454400,87,38.24,16.26,55.0,4.7
465,san fernando,75,PH,1580454400,58,15.03,120.69,84.2,6.93
466,nhulunbuy,20,AU,1580454401,52,-12.23,136.77,93.2,17.22
467,hervey bay,1,AU,1580454401,48,-25.3,152.85,87.8,14.99
468,lichinga,100,MZ,1580454401,90,-13.31,35.24,73.33,3.53
469,leningradskiy,100,RU,1580454402,96,69.38,178.42,-15.56,6.62
470,petrivka,42,UA,1580454402,86,46.97,30.96,33.8,8.95
471,palmer,1,US,1580454402,79,42.16,-72.33,26.01,3.36
472,am timan,95,TD,1580454402,15,11.03,20.28,62.85,4.92
473,olinda,40,BR,1580454178,69,-8.01,-34.86,82.4,3.36
474,port augusta,40,AU,1580454403,29,-32.5,137.77,104.0,26.4
475,jacareacanga,4,BR,1580454184,87,-6.22,-57.75,73.35,0.89
476,edgewater,90,US,1580454403,87,28.99,-80.9,61.0,5.82
477,churapcha,74,RU,1580454403,96,62.0,132.43,-10.89,1.86
478,rivera,9,UY,1580454404,98,-30.91,-55.55,61.93,4.34
479,redmond,90,US,1580454303,93,47.67,-122.12,51.01,4.7
480,karatu,98,TZ,1580454404,75,-3.33,35.67,69.51,4.63
481,sinnamary,81,GF,1580454404,82,5.38,-52.95,78.93,19.04
482,kampong cham,51,KH,1580454405,36,11.99,105.46,90.64,3.98
483,tarko-sale,56,RU,1580454405,96,64.92,77.78,-25.4,4.79
484,pitimbu,17,BR,1580454405,88,-7.47,-34.81,77.0,3.36
485,roald,75,NO,1580454405,66,62.58,6.13,44.6,14.99
486,kasempa,100,ZM,1580454406,97,-13.46,25.83,65.53,2.8
487,caravelas,38,BR,1580454406,84,-17.71,-39.25,79.23,8.32
488,itupeva,100,BR,1580454406,83,-23.15,-47.06,73.4,10.29
489,uvalde,90,US,1580454406,81,29.37,-99.77,50.0,5.55
490,kamalpur,75,IN,1580454406,78,24.2,91.83,73.4,3.36
491,moengo,32,SR,1580454407,97,5.62,-54.4,72.72,2.95
492,pakhtakoron,97,TJ,1580454407,23,40.16,68.75,45.77,3.87
493,thomaston,1,US,1580454407,70,32.89,-84.33,48.2,8.05
494,popondetta,46,PG,1580454407,82,-8.75,148.25,79.12,1.16
495,sioux falls,90,US,1580454219,97,43.55,-96.7,33.01,8.05
496,vincennes,100,FR,1580454408,87,48.85,2.43,53.6,10.29
497,kokopo,100,PG,1580454408,73,-4.35,152.26,84.72,6.76
498,okhotsk,26,RU,1580454408,63,59.38,143.3,-6.25,1.92
499,pasighat,83,IN,1580454409,59,28.07,95.33,65.28,5.03
500,magadan,0,RU,1580454409,60,59.57,150.8,-1.98,1.57
501,nantucket,1,US,1580454409,79,41.28,-70.1,30.99,3.36
502,daru,80,PG,1580454410,73,-9.08,143.21,87.08,4.03
503,batagay-alyta,100,RU,1580454410,98,67.8,130.41,-10.07,3.0
504,powell river,90,CA,1580454410,93,49.85,-124.54,44.6,12.75
505,celestun,12,MX,1580454410,80,20.87,-90.4,72.64,16.28
506,kanniyakumari,1,IN,1580454410,74,8.08,77.57,80.37,22.37
507,vanimo,64,PG,1580454411,82,-2.67,141.3,83.1,17.29
508,okrika,30,NG,1580454411,92,4.74,7.08,76.23,4.45
509,san policarpo,77,PH,1580454411,68,12.18,125.51,80.98,13.49
510,qujing,71,CN,1580454247,62,25.48,103.78,51.82,18.34
511,kon tum,8,VN,1580454415,38,14.35,108.0,80.28,6.69
512,cordoba,0,AR,1580454294,82,-31.41,-64.18,66.99,9.17
513,dingle,67,PH,1580454420,69,11.0,122.67,81.19,13.22
514,ballina,0,AU,1580454420,69,-28.87,153.57,87.8,17.22
515,road town,1,VG,1580454420,88,18.42,-64.62,77.0,3.36
516,poya,0,NC,1580454421,80,-21.35,165.15,79.86,20.0
517,dicabisagan,96,PH,1580454421,84,17.08,122.42,68.31,13.91
518,kieta,100,PG,1580454421,71,-6.22,155.63,84.96,5.59
519,fare,100,PF,1580454422,73,-16.7,-151.02,81.75,4.12
520,ardakan,0,IR,1580454422,33,32.31,54.02,46.4,9.17
521,shetpe,81,KZ,1580454422,80,44.17,52.12,42.46,11.86
522,vardo,40,NO,1580454183,67,70.37,31.11,17.6,17.22
523,georgiyevka,0,KZ,1580454422,73,43.04,74.71,24.8,6.71
524,brae,75,GB,1580454423,75,60.4,-1.35,44.6,27.51
525,parys,100,FR,1580454306,93,48.85,2.35,53.6,9.17
526,biak,100,ID,1580454426,67,-0.91,122.88,85.19,5.55
527,staryy nadym,15,RU,1580454426,99,65.61,72.68,-24.5,1.1
528,kiama,28,AU,1580454426,58,-34.68,150.87,96.01,11.41
529,sao filipe,0,CV,1580454427,62,14.9,-24.5,73.89,10.74
530,tonekabon,0,IR,1580454427,71,36.82,50.87,55.4,5.59
531,zaykovo,100,RU,1580454427,94,57.56,62.76,15.91,8.52
532,yar-sale,5,RU,1580454428,99,66.83,70.83,-24.47,3.31
533,constitucion,0,CL,1580454428,52,-35.33,-72.42,58.86,3.27
534,turukhansk,45,RU,1580454428,96,65.82,87.98,-19.37,5.68
535,verkh-usugli,100,RU,1580454429,69,52.7,115.17,11.86,4.5
536,bollnas,100,SE,1580454429,98,61.35,16.39,32.0,3.02
537,tucumcari,20,US,1580454429,45,35.17,-103.72,42.8,21.92
538,yarovoye,0,RU,1580454138,93,52.93,78.58,-3.28,5.99
539,vostok,100,RU,1580454430,88,46.49,135.88,11.32,2.93
540,guanica,0,PR,1580454430,39,17.97,-66.91,75.0,3.71
541,malpe,40,IN,1580454430,54,13.35,74.72,84.2,6.93
542,somovo,90,RU,1580454430,97,51.74,39.37,33.8,6.71
543,vancouver,90,CA,1580454264,93,49.25,-123.12,48.2,13.87
544,coxim,100,BR,1580454251,95,-18.51,-54.76,73.96,0.96
545,high rock,53,BS,1580454431,69,26.62,-78.28,70.23,6.82
